City_ID,City,Country,Lat,Lng,Max Temp,Humidity,Cloudiness,Wind Speed,Current Description,Rain (inches),Snow (inches)
0,Rikitea,PF,-23.1203,-134.9692,75.15,70,64,12.01,broken clouds,0.0,0.0
1,Houma,US,29.5958,-90.7195,75.99,79,1,0.0,clear sky,0.0,0.0
2,Bandarbeyla,SO,9.4942,50.8122,77.97,83,90,22.59,overcast clouds,0.0,0.0
3,Avarua,CK,-21.2078,-159.775,78.85,57,40,4.61,scattered clouds,0.0,0.0
4,Atuona,PF,-9.8,-139.0333,79.47,67,3,9.01,clear sky,0.0,0.0
5,East London,ZA,-33.0153,27.9116,55.8,67,100,9.75,overcast clouds,0.0,0.0
6,Yellowknife,CA,62.456,-114.3525,52.29,53,75,3.0,broken clouds,0.0,0.0
7,Salvador,SV,13.8333,-88.9167,75.6,94,87,2.75,overcast clouds,0.0,0.0
8,Broome,US,42.2506,-75.833,47.91,96,90,4.61,overcast clouds,0.0,0.0
9,Busselton,AU,-33.65,115.3333,57.09,64,100,13.76,overcast clouds,0.0,0.0
10,Goderich,CA,43.7501,-81.7165,52.03,71,58,2.3,broken clouds,0.0,0.0
11,Cape Town,ZA,-33.9258,18.4232,56.08,91,75,8.39,moderate rain,1.02,0.0
12,Muros,ES,42.7762,-9.0603,64.83,81,3,4.74,clear sky,0.0,0.0
13,Fayaoue,NC,-20.65,166.5333,72.28,60,14,10.36,few clouds,0.0,0.0
14,Fairbanks,US,64.8378,-147.7164,68.59,36,40,9.22,scattered clouds,0.0,0.0
15,Butaritari,KI,3.0707,172.7902,82.96,78,24,13.04,few clouds,0.0,0.0
16,Punta Arenas,CL,-53.15,-70.9167,30.31,80,40,7.58,scattered clouds,0.0,0.0
17,Ponta Do Sol,PT,32.6667,-17.1,64.0,56,13,2.17,few clouds,0.0,0.0
18,Puerto Ayora,EC,-0.7393,-90.3518,73.54,87,3,7.0,clear sky,0.0,0.0
19,Grindavik,IS,63.8424,-22.4338,42.91,93,75,20.6,broken clouds,0.0,0.0
20,Ushuaia,AR,-54.8,-68.3,28.06,100,75,5.75,broken clouds,0.0,0.0
21,Keningau,MY,5.3378,116.1602,84.65,62,98,0.85,overcast clouds,0.0,0.0
22,Constitucion,CL,-35.3333,-72.4167,55.36,74,95,3.71,overcast clouds,0.0,0.0
23,Isiro,CD,2.7739,27.616,66.78,98,61,2.48,broken clouds,0.0,0.0
24,Rawson,AR,-43.3002,-65.1023,53.94,63,49,27.69,scattered clouds,0.0,0.0
25,Dingle,PH,10.9995,122.6711,87.31,67,34,3.42,light rain,0.12,0.0
26,Lorengau,PG,-2.0226,147.2712,83.98,73,100,10.25,overcast clouds,0.0,0.0
27,Hermanus,ZA,-34.4187,19.2345,53.91,71,100,7.83,overcast clouds,0.0,0.0
28,Nishihara,JP,26.1842,127.7558,78.08,78,90,20.51,overcast clouds,0.0,0.0
29,Albany,US,42.6001,-73.9662,47.84,94,100,3.38,overcast clouds,0.0,0.0
30,Kodiak,US,57.79,-152.4072,47.71,81,90,12.66,overcast clouds,0.0,0.0
31,Waingapu,ID,-9.6567,120.2641,83.37,61,92,4.63,overcast clouds,0.0,0.0
32,Bilma,NE,18.6853,12.9164,86.23,11,77,7.78,broken clouds,0.0,0.0
33,Padang,ID,-0.9492,100.3543,82.45,80,99,1.01,overcast clouds,0.0,0.0
34,Iralaya,HN,15.0,-83.2333,80.46,79,27,10.38,scattered clouds,0.0,0.0
35,Bowen,AU,-20.0167,148.2333,75.42,59,97,19.51,overcast clouds,0.0,0.0
36,Torbay,CA,47.6666,-52.7314,48.67,80,75,9.22,broken clouds,0.0,0.0
37,Robertsport,LR,6.7533,-11.3686,79.18,83,100,6.29,moderate rain,2.03,0.0
38,Arraial Do Cabo,BR,-22.9661,-42.0278,73.6,87,100,10.71,overcast clouds,0.0,0.0
39,Bluff,NZ,-46.6,168.3333,49.8,88,100,20.47,overcast clouds,0.0,0.0
40,Axim,GH,4.8699,-2.2405,78.73,87,100,6.93,light rain,0.13,0.0
41,Sao Gabriel Da Cachoeira,BR,-0.1303,-67.0892,73.35,98,100,1.86,overcast clouds,0.0,0.0
42,Kuopio,FI,62.8924,27.677,48.15,66,0,7.36,clear sky,0.0,0.0
43,Nikel,RU,69.4128,30.222,42.98,81,100,10.27,overcast clouds,0.0,0.0
44,Kaitangata,NZ,-46.2817,169.8464,55.92,89,100,7.38,overcast clouds,0.0,0.0
45,Hilo,US,19.7297,-155.09,86.29,83,90,11.5,heavy intensity rain,10.16,0.0
46,Betafo,MG,-19.8333,46.85,53.11,84,0,2.06,clear sky,0.0,0.0
47,Hueytown,US,33.4512,-86.9967,64.62,84,2,4.74,clear sky,0.0,0.0
48,Barrow,US,71.2906,-156.7887,33.82,75,90,19.57,overcast clouds,0.0,0.0
49,Genc,TR,38.7507,40.5603,58.84,43,0,2.77,clear sky,0.0,0.0
50,Skelleftea,SE,64.7507,20.9528,54.0,53,20,1.01,few clouds,0.0,0.0
51,Faanui,PF,-16.4833,-151.75,79.68,72,100,15.75,overcast clouds,0.0,0.0
52,Stornoway,GB,58.2093,-6.3865,52.93,87,57,6.91,broken clouds,0.0,0.0
53,Cidreira,BR,-30.1811,-50.2056,48.52,65,24,7.31,few clouds,0.0,0.0
54,Bentonville,US,36.3728,-94.2088,64.62,77,1,4.61,clear sky,0.0,0.0
55,Coquimbo,CL,-29.9533,-71.3436,53.33,93,7,3.6,clear sky,0.0,0.0
56,Banjarmasin,ID,-3.3244,114.591,86.14,60,41,2.42,scattered clouds,0.0,0.0
57,Lagoa,PT,39.05,-27.9833,62.31,87,94,10.07,overcast clouds,0.0,0.0
58,Bredasdorp,ZA,-34.5322,20.0403,49.32,93,100,4.07,overcast clouds,0.0,0.0
59,Nanortalik,GL,60.1432,-45.2371,36.19,89,6,17.74,clear sky,0.0,0.0
60,Acapulco,MX,16.8634,-99.8901,85.82,70,90,4.97,overcast clouds,0.0,0.0
61,Aztec,US,36.8222,-107.9929,81.81,14,63,11.68,broken clouds,0.0,0.0
62,Saint-Philippe,RE,-21.3585,55.7679,70.21,82,2,6.02,clear sky,0.0,0.0
63,Zaragoza,ES,41.6561,-0.8773,68.11,64,0,1.01,clear sky,0.0,0.0
64,Mataura,NZ,-46.1927,168.8643,49.48,98,100,4.9,overcast clouds,0.0,0.0
65,Te Anau,NZ,-45.4167,167.7167,47.3,94,100,5.57,overcast clouds,0.0,0.0
66,Kapaa,US,22.0752,-159.319,83.19,62,75,1.01,broken clouds,0.0,0.0
67,Lixourion,GR,38.2019,20.4314,63.52,85,18,12.3,few clouds,0.0,0.0
68,Farah,AF,32.5,62.5,81.07,14,0,6.73,clear sky,0.0,0.0
69,Bridgetown,BB,13.1,-59.6167,81.09,65,75,19.1,broken clouds,0.0,0.0
70,Sao Filipe,CV,14.8961,-24.4956,72.41,83,52,6.93,broken clouds,0.0,0.0
71,Brae,GB,60.3964,-1.353,46.31,96,29,9.64,scattered clouds,0.0,0.0
72,College,US,64.8569,-147.8028,69.46,36,75,0.0,broken clouds,0.0,0.0
73,Rocha,UY,-34.4833,-54.3333,40.87,70,86,5.88,overcast clouds,0.0,0.0
74,Port-Gentil,GA,-0.7193,8.7815,78.93,84,100,17.85,overcast clouds,0.0,0.0
75,Hithadhoo,MV,-0.6,73.0833,83.79,70,8,18.21,clear sky,0.0,0.0
76,Nizwa,OM,22.9333,57.5333,83.08,37,60,1.23,broken clouds,0.0,0.0
77,Saint Anthony,US,45.0205,-93.218,61.12,84,75,3.0,broken clouds,0.0,0.0
78,Kamaishi,JP,39.2667,141.8833,67.15,59,58,7.38,broken clouds,0.0,0.0
79,Baghmara,IN,23.795,86.2085,89.73,51,66,9.82,broken clouds,0.0,0.0
80,Dikson,RU,73.5069,80.5464,30.22,98,100,10.27,light snow,0.0,0.45
81,Codrington,AU,-38.2667,141.9667,56.35,41,92,14.41,overcast clouds,0.0,0.0
82,Baiyin,CN,36.5583,104.2081,67.08,31,100,8.28,overcast clouds,0.0,0.0
83,Qaqortoq,GL,60.7167,-46.0333,43.3,75,4,4.52,clear sky,0.0,0.0
84,Dicabisagan,PH,17.0818,122.4157,90.28,61,42,8.03,scattered clouds,0.0,0.0
85,Cordoba,AR,-31.4135,-64.1811,52.75,60,0,6.33,clear sky,0.0,0.0
86,Nikolskoye,RU,59.7035,30.7861,39.78,69,87,2.84,overcast clouds,0.0,0.0
87,Souillac,MU,-20.5167,57.5167,71.37,94,20,6.76,light rain,0.12,0.0
88,Honjo,JP,36.2333,139.1833,78.67,42,3,4.61,clear sky,0.0,0.0
89,Port Alfred,ZA,-33.5906,26.891,55.99,69,100,13.96,overcast clouds,0.0,0.0
90,Castro,BR,-24.7911,-50.0119,56.71,99,100,3.22,overcast clouds,0.0,0.0
91,Upernavik,GL,72.7868,-56.1549,30.83,95,100,3.62,overcast clouds,0.0,0.0
92,Grand Gaube,MU,-20.0064,57.6608,71.38,83,16,1.99,few clouds,0.0,0.0
93,Qaanaaq,GL,77.484,-69.3632,29.03,93,100,4.25,overcast clouds,0.0,0.0
94,Norman Wells,CA,65.282,-126.8329,55.44,54,75,11.5,broken clouds,0.0,0.0
95,Cabo San Lucas,MX,22.8909,-109.9124,86.5,34,1,17.27,clear sky,0.0,0.0
96,Matagami,CA,49.7502,-77.6328,51.91,50,1,6.17,clear sky,0.0,0.0
97,Hearst,CA,49.6835,-83.6665,57.45,53,100,10.89,moderate rain,1.2,0.0
98,Mar Del Plata,AR,-38.0023,-57.5575,51.01,67,0,11.99,clear sky,0.0,0.0
99,Nicoya,CR,10.1483,-85.452,80.15,78,88,5.55,overcast clouds,0.0,0.0
100,Sompeta,IN,18.9333,84.6,88.23,73,16,11.43,few clouds,0.0,0.0
101,Ostrovnoy,RU,68.0531,39.5131,43.47,72,100,11.74,overcast clouds,0.0,0.0
102,Sharan,RU,54.8167,54.0,46.35,82,36,11.83,scattered clouds,0.0,0.0
103,Conde,BR,-7.2597,-34.9075,74.66,100,75,5.64,broken clouds,0.0,0.0
104,Yeppoon,AU,-23.1333,150.7333,73.18,65,8,13.04,clear sky,0.0,0.0
105,Kathmandu,NP,27.7167,85.3167,73.62,88,75,2.3,broken clouds,0.0,0.0
106,Byron Bay,AU,-28.65,153.6167,68.11,61,47,13.58,scattered clouds,0.0,0.0
107,Deputatskiy,RU,69.3,139.9,59.72,39,8,17.65,clear sky,0.0,0.0
108,Luwuk,ID,-0.9516,122.7875,84.54,72,100,5.1,overcast clouds,0.0,0.0
109,Hobart,AU,-42.8794,147.3294,53.26,69,0,4.03,clear sky,0.0,0.0
110,Brewster,US,41.3973,-73.6171,49.44,95,100,1.01,overcast clouds,0.0,0.0
111,Tevaitoa,PF,-16.7833,-151.5,79.27,72,100,16.96,overcast clouds,0.0,0.0
112,Shihezi,CN,44.3,86.0333,81.64,19,24,7.31,few clouds,0.0,0.0
113,Alta Floresta,BR,-9.8756,-56.0861,72.61,60,58,2.8,broken clouds,0.0,0.0
114,Kemijarvi,FI,66.7131,27.4306,46.58,68,100,8.3,light rain,0.36,0.0
115,Victoria,HK,22.2855,114.1577,88.97,85,100,1.01,moderate rain,1.33,0.0
116,Erenhot,CN,43.6475,111.9767,60.24,44,60,20.69,broken clouds,0.0,0.0
117,Khatanga,RU,71.9667,102.5,50.52,72,100,7.99,overcast clouds,0.0,0.0
118,Esperance,AU,-33.8667,121.9,60.64,82,100,24.4,light rain,0.37,0.0
119,Andenes,NO,69.3143,16.1194,44.58,87,90,14.97,overcast clouds,0.0,0.0
120,Dhule,IN,20.9,74.7833,86.22,59,85,7.05,overcast clouds,0.0,0.0
121,Morro Bay,US,35.3658,-120.8499,77.79,75,26,4.0,scattered clouds,0.0,0.0
122,Bambous Virieux,MU,-20.3428,57.7575,71.22,94,20,9.53,few clouds,0.0,0.0
123,Lima,PE,-12.0432,-77.0282,63.14,88,90,10.36,overcast clouds,0.0,0.0
124,Makakilo City,US,21.3469,-158.0858,80.62,68,90,11.5,overcast clouds,0.0,0.0
125,Kavieng,PG,-2.5744,150.7967,83.5,77,100,11.59,moderate rain,1.94,0.0
126,Laguna,US,38.421,-121.4238,101.1,29,1,5.01,clear sky,0.0,0.0
127,Bengkulu,ID,-3.8004,102.2655,79.93,76,45,3.87,scattered clouds,0.0,0.0
128,Vaini,TO,-21.2,-175.2,75.36,83,75,3.44,broken clouds,0.0,0.0
129,Wajima,JP,37.4,136.9,68.68,72,75,11.05,broken clouds,0.0,0.0
130,Leningradskiy,RU,69.3833,178.4167,40.41,78,24,4.68,few clouds,0.0,0.0
131,Tura,IN,25.5198,90.2201,75.65,91,98,4.5,light rain,0.56,0.0
132,Esil,KZ,51.9556,66.4042,72.45,56,69,10.4,broken clouds,0.0,0.0
133,Comodoro Rivadavia,AR,-45.8667,-67.5,40.86,87,40,8.05,scattered clouds,0.0,0.0
134,Tarakan,ID,3.3,117.6333,76.5,100,75,3.44,heavy intensity rain,6.48,0.0
135,Chuy,UY,-33.6971,-53.4616,42.19,75,3,5.82,clear sky,0.0,0.0
136,Pangai,TO,-19.8,-174.35,82.51,74,20,9.22,light rain,0.28,0.0
137,San Patricio,US,28.017,-97.5169,80.69,79,18,11.74,few clouds,0.0,0.0
138,Itaituba,BR,-4.2761,-55.9836,77.54,65,29,1.72,scattered clouds,0.0,0.0
139,Boyolangu,ID,-8.1181,111.8935,81.82,76,80,4.99,broken clouds,0.0,0.0
140,Lufilufi,WS,-13.8745,-171.5986,92.98,71,39,19.93,scattered clouds,0.0,0.0
141,Vila Franca Do Campo,PT,37.7167,-25.4333,61.21,81,100,5.79,overcast clouds,0.0,0.0
142,Alofi,NU,-19.0595,-169.9187,84.09,74,63,8.05,light rain,0.18,0.0
143,Tafalla,ES,42.5269,-1.6745,63.48,92,17,2.98,few clouds,0.0,0.0
144,Baherden,TM,38.4362,57.4316,88.9,20,75,12.62,broken clouds,0.0,0.0
145,Saskylakh,RU,71.9167,114.0833,44.96,66,1,5.91,clear sky,0.0,0.0
146,Merauke,ID,-8.4667,140.3333,83.08,66,70,10.71,broken clouds,0.0,0.0
147,Cherskiy,RU,68.75,161.3,63.88,28,0,2.89,clear sky,0.0,0.0
148,Osorno,CL,-40.5667,-73.15,52.11,93,90,6.91,overcast clouds,0.0,0.0
149,Sitka,US,57.0531,-135.33,55.29,71,90,5.75,overcast clouds,0.0,0.0
150,Scarborough,GB,54.2797,-0.4044,46.06,90,5,1.01,clear sky,0.0,0.0
151,Dire Dawa,ET,9.5931,41.8661,69.55,56,15,9.78,few clouds,0.0,0.0
152,Ancud,CL,-41.8697,-73.8203,57.22,97,100,13.85,overcast clouds,0.0,0.0
153,Faya,SA,18.3851,42.4509,64.51,19,1,4.92,clear sky,0.0,0.0
154,Hualmay,PE,-11.0964,-77.6139,64.98,89,92,10.09,overcast clouds,0.0,0.0
155,Georgetown,MY,5.4112,100.3354,87.73,73,20,1.01,few clouds,0.0,0.0
156,Omboue,GA,-1.5746,9.2618,75.94,90,91,7.56,overcast clouds,0.0,0.0
157,Aksarka,RU,66.5606,67.7975,39.45,50,5,11.9,clear sky,0.0,0.0
158,Jamestown,US,42.097,-79.2353,47.52,90,5,1.95,clear sky,0.0,0.0
159,Chapais,CA,49.7834,-74.8492,56.98,57,5,5.3,clear sky,0.0,0.0
160,Grootfontein,NA,-19.5667,18.1167,42.37,75,100,1.14,overcast clouds,0.0,0.0
161,Yaan,NG,7.3833,8.5667,76.55,88,100,7.4,overcast clouds,0.0,0.0
162,Port Blair,IN,11.6667,92.75,80.64,94,20,1.14,few clouds,0.0,0.0
163,Molokovo,RU,58.1661,36.7628,35.47,81,6,5.39,clear sky,0.0,0.0
164,Ust-Kulom,RU,61.6864,53.6902,38.19,63,7,6.29,clear sky,0.0,0.0
165,Tasiilaq,GL,65.6145,-37.6368,35.76,96,94,3.78,overcast clouds,0.0,0.0
166,Nemuro,JP,43.3236,145.575,45.03,79,87,19.98,overcast clouds,0.0,0.0
167,Mehamn,NO,71.0357,27.8492,42.26,97,100,25.23,overcast clouds,0.0,0.0
168,Saldanha,ZA,-33.0117,17.9442,51.85,86,93,4.76,light rain,0.25,0.0
169,New Norfolk,AU,-42.7826,147.0587,52.92,49,89,3.24,overcast clouds,0.0,0.0
170,Sainte-Marie,RE,-20.8968,55.5496,70.77,68,0,8.05,clear sky,0.0,0.0
171,Hovd,MN,48.0056,91.6419,52.77,27,4,4.99,clear sky,0.0,0.0
172,Loandjili,CG,-4.7561,11.8578,77.11,94,75,3.44,broken clouds,0.0,0.0
173,Sistranda,NO,63.7256,8.834,45.9,90,100,8.52,overcast clouds,0.0,0.0
174,Oistins,BB,13.0667,-59.5333,80.69,65,75,19.57,broken clouds,0.0,0.0
175,Beaverlodge,CA,55.2166,-119.4361,65.55,59,100,13.22,overcast clouds,0.0,0.0
176,Itarema,BR,-2.9248,-39.9167,76.26,85,20,10.92,few clouds,0.0,0.0
177,Anchorage,US,61.2181,-149.9003,61.68,54,90,1.01,overcast clouds,0.0,0.0
178,Talnakh,RU,69.4865,88.3972,34.43,100,100,5.55,light rain,0.47,0.0
179,Krasnyye Chetai,RU,55.6887,46.1386,41.09,89,100,12.84,overcast clouds,0.0,0.0
180,Marshall,US,34.3834,-86.3333,64.71,85,0,4.43,clear sky,0.0,0.0
181,Mykolayivka,UA,47.5414,30.7561,52.36,91,93,6.51,overcast clouds,0.0,0.0
182,Staicele,LV,57.8364,24.75,43.38,78,15,3.91,few clouds,0.0,0.0
183,Saint George,US,37.1041,-113.5841,90.19,12,1,1.99,clear sky,0.0,0.0
184,Kieta,PG,-6.2167,155.6333,85.01,72,58,5.19,light rain,0.32,0.0
185,Port Antonio,JM,18.18,-76.4612,84.11,83,100,8.81,overcast clouds,0.0,0.0
186,Soyaux,FR,45.65,0.2,56.23,71,0,3.44,clear sky,0.0,0.0
187,Klaksvik,FO,62.2266,-6.589,52.72,92,4,19.35,clear sky,0.0,0.0
188,Pangnirtung,CA,66.1451,-65.7125,31.84,99,100,0.85,light snow,0.0,0.22
189,Manokwari,ID,-0.8667,134.0833,84.06,73,97,6.35,moderate rain,1.15,0.0
190,Sur,OM,22.5667,59.5289,88.92,45,99,10.31,overcast clouds,0.0,0.0
191,Saint-Georges,GD,12.0564,-61.7485,82.08,78,40,17.27,scattered clouds,0.0,0.0
192,Bairiki,KI,1.3292,172.9752,86.0,70,20,14.29,few clouds,0.0,0.0
193,Green River,US,41.5286,-109.4662,63.0,38,49,18.12,scattered clouds,0.0,0.0
194,Longyearbyen,SJ,78.2186,15.6401,33.64,75,90,1.14,overcast clouds,0.0,0.0
195,Kambove,CD,-10.8764,26.5969,50.59,55,5,4.52,clear sky,0.0,0.0
196,Snezhnogorsk,RU,69.1933,33.2531,40.78,85,100,13.85,overcast clouds,0.0,0.0
197,Avera,US,33.194,-82.5271,63.91,64,0,7.11,clear sky,0.0,0.0
198,Pueblo Nuevo,MX,23.3833,-105.3833,60.06,73,0,4.09,clear sky,0.0,0.0
199,Nantucket,US,41.2835,-70.0995,55.15,97,100,11.77,overcast clouds,0.0,0.0
200,Barcelos,PT,41.5388,-8.6151,64.92,90,5,3.11,clear sky,0.0,0.0
201,Nalut,LY,30.3333,10.85,76.96,32,16,10.18,few clouds,0.0,0.0
202,Abha,SA,18.2164,42.5053,64.22,29,0,4.68,clear sky,0.0,0.0
203,Zhangye,CN,38.9342,100.4517,67.15,17,10,14.05,clear sky,0.0,0.0
204,Araouane,ML,18.9048,-3.5265,91.56,10,91,7.16,overcast clouds,0.0,0.0
205,Dwarka,IN,22.2394,68.9678,83.48,77,66,15.75,broken clouds,0.0,0.0
206,Rabo De Peixe,PT,37.8,-25.5833,60.31,82,20,6.73,few clouds,0.0,0.0
207,Hasaki,JP,35.7333,140.8333,77.18,60,0,11.12,clear sky,0.0,0.0
208,Port Lincoln,AU,-34.7333,135.8667,59.5,36,100,16.28,overcast clouds,0.0,0.0
209,Barkot,IN,30.8167,78.2,72.59,60,0,1.92,clear sky,0.0,0.0
210,Taree,AU,-31.9,152.4667,65.07,55,40,10.36,scattered clouds,0.0,0.0
211,Vila Velha,BR,-20.3297,-40.2925,75.94,87,20,4.0,few clouds,0.0,0.0
212,Eyl,SO,7.9803,49.8164,77.56,80,100,16.33,overcast clouds,0.0,0.0
213,Livingstonia,MW,-10.606,34.1063,55.9,75,3,0.94,clear sky,0.0,0.0
214,Rio Gallegos,AR,-51.6226,-69.2181,33.85,75,0,8.05,clear sky,0.0,0.0
215,Yamada,JP,39.4667,141.95,63.12,60,74,6.87,broken clouds,0.0,0.0
216,Roald,NO,62.5833,6.1333,50.05,93,90,5.75,overcast clouds,0.0,0.0
217,Zyryanka,RU,65.75,150.85,64.81,30,23,15.48,few clouds,0.0,0.0
218,Staraya Poltavka,RU,50.4772,46.4814,64.22,90,85,5.06,overcast clouds,0.0,0.0
219,Nhulunbuy,AU,-12.2333,136.7667,83.01,65,75,17.27,broken clouds,0.0,0.0
220,Aklavik,CA,68.2191,-135.0107,54.32,47,100,6.69,overcast clouds,0.0,0.0
221,Zaria,NG,11.1113,7.7227,76.8,59,10,7.31,clear sky,0.0,0.0
222,Mahebourg,MU,-20.4081,57.7,71.26,94,20,6.91,light rain,0.1,0.0
223,Coxim,BR,-18.5067,-54.76,72.88,58,98,3.22,moderate rain,1.91,0.0
224,Tahta,EG,26.7693,31.5021,78.91,15,0,3.02,clear sky,0.0,0.0
225,Yerbogachen,RU,61.2767,108.0108,60.62,52,51,5.35,broken clouds,0.0,0.0
226,Villa Bruzual,VE,9.3328,-69.1208,79.65,67,99,1.59,overcast clouds,0.0,0.0
227,Takoradi,GH,4.8845,-1.7554,78.87,87,100,7.0,light rain,0.23,0.0
228,Port Elizabeth,ZA,-33.918,25.5701,53.89,82,0,5.75,clear sky,0.0,0.0
229,Luderitz,NA,-26.6481,15.1594,56.23,65,0,15.19,clear sky,0.0,0.0
230,Erie,US,42.7667,-78.6664,53.74,77,0,5.32,clear sky,0.0,0.0
231,Urumqi,CN,43.801,87.6005,79.75,15,0,2.24,clear sky,0.0,0.0
232,Mitsamiouli,KM,-11.3847,43.2844,78.13,78,6,10.04,light rain,0.28,0.0
233,Terney,RU,45.0503,136.6092,44.83,89,100,2.59,overcast clouds,0.0,0.0
234,Karratha,AU,-20.7377,116.8463,74.43,54,3,12.5,clear sky,0.0,0.0
235,Komsomolskiy,UZ,40.4272,71.7189,78.22,41,1,9.22,clear sky,0.0,0.0
236,Whitehorse,CA,60.7161,-135.0538,57.97,44,75,17.0,broken clouds,0.0,0.0
237,Bethel,US,41.3712,-73.414,49.19,92,100,1.01,light rain,0.13,0.0
238,Alekseyevka,RU,50.6309,38.6903,51.39,95,98,5.79,overcast clouds,0.0,0.0
239,Santa Maria,BR,-29.6842,-53.8069,38.5,100,0,2.84,clear sky,0.0,0.0
240,Shahrud,IR,36.4182,54.9763,75.58,30,2,7.11,clear sky,0.0,0.0
241,Locri,IT,38.2414,16.2623,64.17,82,6,3.4,clear sky,0.0,0.0
242,Chokurdakh,RU,70.6333,147.9167,66.74,22,6,13.2,clear sky,0.0,0.0
243,Tecolutla,MX,20.4833,-97.0167,80.65,82,8,8.55,clear sky,0.0,0.0
244,Mareeba,AU,-17.0,145.4333,75.43,70,90,8.95,overcast clouds,0.0,0.0
245,Chicama,PE,-7.8447,-79.1469,63.14,85,100,6.42,overcast clouds,0.0,0.0
246,Kuah,MY,6.3265,99.8432,87.8,89,20,2.19,few clouds,0.0,0.0
247,Eureka,US,40.8021,-124.1637,65.91,73,87,1.99,overcast clouds,0.0,0.0
248,Yermakovskoye,RU,53.2831,92.4003,52.32,75,15,4.16,few clouds,0.0,0.0
249,Camacari,BR,-12.6975,-38.3242,78.57,91,81,4.25,broken clouds,0.0,0.0
250,Adrar,MR,20.5022,-10.0711,89.53,28,100,11.54,overcast clouds,0.0,0.0
251,Nanhai,CN,30.1282,111.7784,80.82,71,83,6.24,broken clouds,0.0,0.0
252,Falam,MM,22.9167,93.6833,75.79,61,21,1.05,few clouds,0.0,0.0
253,Salalah,OM,17.0151,54.0924,82.49,89,75,4.61,broken clouds,0.0,0.0
254,Riyadh,SA,24.6877,46.7219,87.85,11,0,0.0,clear sky,0.0,0.0
255,Canto Do Buriti,BR,-8.11,-42.9444,70.9,52,34,4.59,scattered clouds,0.0,0.0
256,Ambatofinandrahana,MG,-20.55,46.8,51.48,87,0,1.16,clear sky,0.0,0.0
257,Ust-Maya,RU,60.4167,134.5333,65.39,48,100,5.41,overcast clouds,0.0,0.0
258,Zhaozhou,CN,45.6833,125.3167,74.23,33,11,8.01,few clouds,0.0,0.0
259,Umm Kaddadah,SD,13.6017,26.6876,85.53,22,5,5.03,clear sky,0.0,0.0
260,Mut,TR,36.6439,33.4389,64.92,59,6,2.71,clear sky,0.0,0.0
261,Eregli,TR,37.5133,34.0467,60.96,63,89,2.37,overcast clouds,0.0,0.0
262,Westport,US,41.1415,-73.3579,50.9,93,90,1.01,overcast clouds,0.0,0.0
263,Zeya,RU,53.75,127.2667,56.98,79,98,6.22,light rain,0.19,0.0
264,Kahului,US,20.8947,-156.47,83.97,68,40,11.5,scattered clouds,0.0,0.0
265,Hami,CN,42.8,93.45,74.73,9,0,10.96,clear sky,0.0,0.0
266,Oyo,NG,7.85,3.9333,73.78,98,77,4.23,broken clouds,0.0,0.0
267,Lebu,CL,-37.6167,-73.65,53.91,94,100,11.25,overcast clouds,0.0,0.0
268,Sabha,LY,27.0377,14.4283,80.28,27,0,12.1,clear sky,0.0,0.0
269,Choix,MX,26.7092,-108.3219,87.57,27,95,7.72,overcast clouds,0.0,0.0
270,Vila Do Maio,CV,15.1333,-23.2167,72.39,85,96,15.28,overcast clouds,0.0,0.0
271,Carnarvon,AU,-24.8667,113.6333,66.27,68,61,9.22,broken clouds,0.0,0.0
272,San Matias,BO,-16.3667,-58.4,79.23,51,100,5.66,overcast clouds,0.0,0.0
273,Iqaluit,CA,63.7506,-68.5145,37.13,81,90,11.01,overcast clouds,0.0,0.0
274,Airai,TL,-8.9266,125.4092,71.67,56,100,1.54,overcast clouds,0.0,0.0
275,Egvekinot,RU,66.3167,-179.1667,47.52,39,48,4.29,scattered clouds,0.0,0.0
276,Shimsk,RU,58.212,30.7127,37.08,84,11,2.73,few clouds,0.0,0.0
277,Taksimo,RU,56.3444,114.8794,43.92,67,100,3.15,overcast clouds,0.0,0.0
278,Kontagora,NG,10.3999,5.4695,80.38,61,28,6.08,scattered clouds,0.0,0.0
279,Arman,RU,59.7,150.1667,37.22,98,100,5.28,light rain,0.1,0.0
280,Yaya,RU,56.206,86.44,59.61,71,100,7.07,overcast clouds,0.0,0.0
281,Yurty,RU,56.0498,97.6348,41.54,74,100,2.91,overcast clouds,0.0,0.0
282,Kushima,JP,31.4583,131.2333,81.91,55,2,7.4,clear sky,0.0,0.0
283,Vung Tau,VN,10.346,107.0843,84.7,75,16,10.04,few clouds,0.0,0.0
284,Severo-Kurilsk,RU,50.6789,156.125,39.06,97,100,23.4,moderate rain,1.2,0.0
285,Les Cayes,HT,18.2,-73.75,77.56,83,100,5.57,overcast clouds,0.0,0.0
286,Vao,NC,-22.6667,167.4833,70.14,55,92,17.63,overcast clouds,0.0,0.0
287,Vanimo,PG,-2.6741,141.3028,85.35,70,78,8.34,broken clouds,0.0,0.0
288,Nuuk,GL,64.1835,-51.7216,34.41,93,75,13.8,broken clouds,0.0,0.0
289,Tuktoyaktuk,CA,69.4541,-133.0374,44.6,53,20,8.05,few clouds,0.0,0.0
290,Pingliang,CN,35.5392,106.6861,72.32,36,100,14.9,overcast clouds,0.0,0.0
291,Aksu,CN,41.1231,80.2644,80.6,22,97,14.07,overcast clouds,0.0,0.0
292,Muhos,FI,64.808,25.9931,47.98,81,100,2.98,light rain,0.38,0.0
293,Ixtapa,MX,20.7,-105.2,79.23,78,20,4.61,few clouds,0.0,0.0
294,Pouebo,NC,-20.4,164.5667,72.86,49,67,6.64,broken clouds,0.0,0.0
295,Okoneshnikovo,RU,54.8377,75.0834,68.18,44,75,17.27,broken clouds,0.0,0.0
296,Buala,SB,-8.145,159.5921,84.61,72,43,6.53,light rain,0.25,0.0
297,Neepawa,CA,50.2289,-99.4664,55.8,70,59,6.38,broken clouds,0.0,0.0
298,Korla,CN,41.7597,86.1469,79.5,16,2,4.83,clear sky,0.0,0.0
299,High Rock,BS,26.6208,-78.2833,78.82,76,73,11.63,broken clouds,0.0,0.0
300,Zhireken,RU,52.8249,117.3076,52.5,72,100,8.63,light rain,0.29,0.0
301,Touros,BR,-5.1989,-35.4608,76.1,89,37,8.32,scattered clouds,0.0,0.0
302,Tall Kayf,TR,37.0833,41.0667,62.94,34,0,3.6,clear sky,0.0,0.0
303,Gravdal,NO,68.1214,13.5031,45.36,90,100,8.43,light rain,0.1,0.0
304,Banamba,ML,13.55,-7.45,90.59,34,67,6.49,broken clouds,0.0,0.0
305,Kruisfontein,ZA,-34.0033,24.7314,49.42,79,79,6.04,broken clouds,0.0,0.0
306,Yuksekova,TR,37.5736,44.2872,50.63,57,0,0.87,clear sky,0.0,0.0
307,Zemio,CF,5.0314,25.1361,70.36,82,13,1.28,few clouds,0.0,0.0
308,Dudinka,RU,69.4058,86.1778,32.79,99,100,8.63,overcast clouds,0.0,0.0
309,Susangerd,IR,31.5608,48.1831,89.62,11,0,10.94,clear sky,0.0,0.0
310,Yumen,CN,40.2833,97.2,62.92,11,0,10.83,clear sky,0.0,0.0
311,Pasighat,IN,28.0667,95.3333,79.7,85,54,1.92,broken clouds,0.0,0.0
312,Nioro,GM,13.35,-15.75,76.75,65,100,6.46,overcast clouds,0.0,0.0
313,Carutapera,BR,-1.195,-46.02,76.1,92,6,5.03,clear sky,0.0,0.0
314,Balkanabat,TM,39.5108,54.3671,81.52,32,0,9.95,clear sky,0.0,0.0
315,Port Macquarie,AU,-31.4333,152.9167,66.88,60,58,8.66,broken clouds,0.0,0.0
316,Nikki,BJ,9.9401,3.2108,76.1,81,99,9.17,overcast clouds,0.0,0.0
317,Bubaque,GW,11.2833,-15.8333,77.58,78,100,9.01,overcast clouds,0.0,0.0
318,Havelock,US,34.8791,-76.9013,60.8,88,90,1.99,overcast clouds,0.0,0.0
319,Cermik,TR,38.1361,39.4493,57.69,37,1,1.25,clear sky,0.0,0.0
320,Karakol,KG,42.4907,78.3936,62.83,49,98,2.55,overcast clouds,0.0,0.0
321,Mansar,IN,21.4,79.25,85.73,36,100,3.29,overcast clouds,0.0,0.0
322,Verkhoyansk,RU,67.5447,133.385,51.37,71,100,2.19,overcast clouds,0.0,0.0
323,Barinas,VE,8.6226,-70.2075,91.44,55,64,3.44,broken clouds,0.0,0.0
324,Daru,PG,-9.0763,143.2092,81.77,69,100,13.87,overcast clouds,0.0,0.0
325,Rosarito,MX,32.3333,-117.0333,64.63,73,28,5.75,scattered clouds,0.0,0.0
326,Villa Carlos Paz,AR,-31.4241,-64.4978,49.39,54,0,6.91,clear sky,0.0,0.0
327,Jumla,NP,29.2747,82.1838,63.37,67,73,1.14,broken clouds,0.0,0.0
328,Ilulissat,GL,69.2167,-51.1,33.82,80,75,12.66,broken clouds,0.0,0.0
329,Lagos,NG,6.5833,3.75,79.12,92,87,4.68,overcast clouds,0.0,0.0
330,San Pedro De Macoris,DO,18.4616,-69.2972,78.49,82,0,9.78,clear sky,0.0,0.0
331,Vladaia,RO,44.35,23.0333,52.07,79,30,5.12,moderate rain,1.09,0.0
332,Sept-Iles,CA,50.2001,-66.3821,52.25,52,75,4.0,broken clouds,0.0,0.0
333,Katsuura,JP,35.1333,140.3,77.23,63,0,13.53,clear sky,0.0,0.0
334,Awjilah,LY,29.1081,21.2869,76.64,44,0,10.31,clear sky,0.0,0.0
335,Boditi,ET,6.9667,37.8667,55.09,86,49,1.66,scattered clouds,0.0,0.0
336,Coyaima,CO,3.7994,-75.1947,74.64,84,82,3.31,broken clouds,0.0,0.0
337,Lompoc,US,34.6391,-120.4579,69.13,82,1,10.36,clear sky,0.0,0.0
338,Guerrero Negro,MX,27.9769,-114.0611,61.7,73,0,17.0,clear sky,0.0,0.0
339,Kavaratti,IN,10.5669,72.642,82.81,78,100,19.98,overcast clouds,0.0,0.0
340,Pisco,PE,-13.7,-76.2167,62.65,94,93,3.44,overcast clouds,0.0,0.0
341,Thompson,CA,55.7435,-97.8558,55.56,54,40,5.75,scattered clouds,0.0,0.0
342,Antri,IN,26.0567,78.2144,95.34,30,11,9.01,few clouds,0.0,0.0
343,Anadyr,RU,64.75,177.4833,59.5,38,0,7.34,clear sky,0.0,0.0
344,Ossora,RU,59.2353,163.0719,42.51,70,29,8.7,scattered clouds,0.0,0.0
345,Barnsley,GB,53.55,-1.4833,49.68,91,0,2.21,clear sky,0.0,0.0
346,Katobu,ID,-4.9408,122.5276,85.59,63,95,1.86,overcast clouds,0.0,0.0
347,Landau,DE,49.2075,8.1133,52.38,63,0,5.73,clear sky,0.0,0.0
348,Tateyama,JP,34.9833,139.8667,78.15,66,6,8.7,clear sky,0.0,0.0
349,Ribeira Brava,PT,32.65,-17.0667,64.0,70,12,2.08,few clouds,0.0,0.0
350,Kaeo,NZ,-35.1,173.7833,63.32,77,6,11.16,clear sky,0.0,0.0
351,Arkadelphia,US,34.1209,-93.0538,65.68,82,49,0.0,scattered clouds,0.0,0.0
352,Victor Harbor,AU,-35.5667,138.6167,60.46,62,100,6.62,overcast clouds,0.0,0.0
353,Abeche,TD,13.8292,20.8324,84.33,16,50,6.73,scattered clouds,0.0,0.0
354,Palauig,PH,15.435,119.9045,88.11,65,88,6.06,overcast clouds,0.0,0.0
355,Bongaigaon,IN,26.4782,90.5568,77.5,89,100,2.86,light rain,0.95,0.0
356,Aberdeen,GB,57.1437,-2.0981,45.09,100,75,9.22,broken clouds,0.0,0.0
357,Parabel,RU,58.6978,81.4825,68.72,52,90,9.24,overcast clouds,0.0,0.0
358,Halifax,CA,44.6453,-63.5724,49.41,89,100,8.01,overcast clouds,0.0,0.0
359,Marawi,PH,7.9986,124.2928,69.66,83,100,1.1,overcast clouds,0.0,0.0
360,Husavik,IS,66.0449,-17.3389,46.31,74,66,6.38,broken clouds,0.0,0.0
361,Kisangani,CD,0.5167,25.2,71.1,93,72,1.68,light rain,0.25,0.0
362,Luanda,AO,-8.8368,13.2343,73.4,94,40,3.44,scattered clouds,0.0,0.0
363,Havoysund,NO,70.9963,24.6622,41.88,97,100,27.31,overcast clouds,0.0,0.0
364,Bentiu,SS,9.2333,29.8333,86.59,38,54,4.47,broken clouds,0.0,0.0
365,Richards Bay,ZA,-28.783,32.0377,62.29,70,100,2.48,overcast clouds,0.0,0.0
366,Sorong,ID,-0.8833,131.25,79.66,86,100,9.48,overcast clouds,0.0,0.0
367,Marienburg,PL,54.0359,19.0266,45.88,92,40,3.56,scattered clouds,0.0,0.0
368,Alyangula,AU,-13.8483,136.4192,82.27,65,75,14.63,broken clouds,0.0,0.0
369,Vostok,RU,46.4856,135.8833,48.0,86,99,3.0,overcast clouds,0.0,0.0
370,Sidney,AU,-33.8679,151.2073,65.77,59,20,1.01,few clouds,0.0,0.0
371,Ankang,CN,32.68,109.0172,83.14,61,100,1.59,overcast clouds,0.0,0.0
372,Tuatapere,NZ,-46.1333,167.6833,49.82,93,100,5.53,overcast clouds,0.0,0.0
373,Tocopilla,CL,-22.092,-70.1979,66.24,71,77,8.84,broken clouds,0.0,0.0
374,Bonavista,CA,48.6499,-53.1147,44.6,75,25,7.43,scattered clouds,0.0,0.0
375,Teahupoo,PF,-17.8333,-149.2667,76.96,67,99,14.56,overcast clouds,0.0,0.0
376,Lubango,AO,-14.9172,13.4925,56.14,39,30,3.15,scattered clouds,0.0,0.0
377,Kirakira,SB,-10.4544,161.9205,81.79,83,51,7.52,broken clouds,0.0,0.0
378,Charyshskoye,RU,51.3978,83.5598,63.46,53,6,5.77,clear sky,0.0,0.0
379,Jurm,AF,36.8648,70.8342,69.26,41,72,1.63,broken clouds,0.0,0.0
380,Santa Cruz,BO,-17.8,-63.1667,62.06,72,75,12.1,broken clouds,0.0,0.0
381,Tiksi,RU,71.6872,128.8694,36.55,83,100,7.38,overcast clouds,0.0,0.0
382,Ketchikan,US,55.3422,-131.6461,54.07,94,90,11.5,light rain,0.15,0.0
383,Portland,US,45.5234,-122.6762,82.98,37,20,4.0,few clouds,0.0,0.0
384,Haradok,BY,55.4624,29.9816,37.18,78,29,6.02,scattered clouds,0.0,0.0
385,Porto Santo,PT,33.072,-16.3415,63.3,67,40,8.05,scattered clouds,0.0,0.0
386,Mogzon,RU,51.7435,111.9606,49.21,27,9,11.86,clear sky,0.0,0.0
387,Gerash,IR,27.6652,54.1371,75.34,12,0,4.79,clear sky,0.0,0.0
388,Andreapol,RU,56.6513,32.2664,35.92,76,0,4.27,clear sky,0.0,0.0
389,Gafargaon,BD,24.4333,90.5667,82.38,76,93,6.93,overcast clouds,0.0,0.0
390,Nome,US,64.5011,-165.4064,56.16,47,1,11.5,clear sky,0.0,0.0
391,Yuzhne,UA,46.6221,31.1013,57.42,77,97,7.52,overcast clouds,0.0,0.0
392,Tiarei,PF,-17.5333,-149.3333,82.42,70,81,16.37,broken clouds,0.0,0.0
393,Mount Gambier,AU,-37.8333,140.7667,53.51,50,100,14.97,overcast clouds,0.0,0.0
394,Ornskoldsvik,SE,63.2909,18.7153,58.15,44,90,3.22,overcast clouds,0.0,0.0
395,Troitsko-Pechorsk,RU,62.7084,56.1964,38.93,63,9,7.83,clear sky,0.0,0.0
396,Vitim,RU,59.4511,112.5578,41.88,96,100,6.62,overcast clouds,0.0,0.0
397,Ribeira Grande,PT,38.5167,-28.7,63.79,82,100,6.78,overcast clouds,0.0,0.0
398,Huarmey,PE,-10.0681,-78.1522,67.26,85,100,8.84,overcast clouds,0.0,0.0
399,Provideniya,RU,64.3833,-173.3,50.11,46,0,20.13,clear sky,0.0,0.0
400,Bilibino,RU,68.0546,166.4372,60.28,26,22,2.35,few clouds,0.0,0.0
401,Ginir,ET,7.1333,40.7,55.11,76,74,4.99,broken clouds,0.0,0.0
402,Lubao,PH,14.9167,120.55,94.71,57,96,5.12,overcast clouds,0.0,0.0
403,Mecca,SA,21.4267,39.8261,93.43,24,79,7.23,broken clouds,0.0,0.0
404,Krasnoarmeysk,RU,51.0239,45.6969,63.07,95,97,5.3,overcast clouds,0.0,0.0
405,Prince Rupert,CA,54.3161,-130.3201,57.29,79,90,9.22,light rain,0.12,0.0
406,Isangel,VU,-19.55,169.2667,77.11,69,90,6.6,overcast clouds,0.0,0.0
407,Katangli,RU,51.7102,143.2326,41.22,67,100,9.53,overcast clouds,0.0,0.0
408,Astana,KZ,51.1801,71.446,71.55,35,0,14.03,clear sky,0.0,0.0
409,Mandalgovi,MN,45.7625,106.2708,44.76,36,0,17.13,clear sky,0.0,0.0
410,Rumboci,BA,43.8322,17.5011,45.14,98,46,4.63,scattered clouds,0.0,0.0
411,Puro,PH,12.4841,123.3827,86.68,66,33,2.35,scattered clouds,0.0,0.0
412,Barranca,PE,-10.75,-77.7667,64.69,88,100,8.25,overcast clouds,0.0,0.0
413,Ust-Nera,RU,64.5667,143.2,57.69,53,92,3.98,overcast clouds,0.0,0.0
414,Jalu,LY,29.0331,21.5482,77.09,45,0,11.23,clear sky,0.0,0.0
415,Bedele,ET,8.456,36.353,52.86,66,9,2.04,clear sky,0.0,0.0
416,Ko Samui,TH,9.5357,99.9357,89.51,70,20,12.37,few clouds,0.0,0.0
417,West Wendover,US,40.7391,-114.0733,79.81,9,1,9.22,clear sky,0.0,0.0
418,Sharjah,AE,25.3573,55.4033,90.25,43,0,10.27,clear sky,0.0,0.0
419,Nagato,JP,34.3833,131.2,75.65,50,5,0.25,clear sky,0.0,0.0
420,Sakakah,SA,29.9697,40.2064,80.17,13,81,5.93,broken clouds,0.0,0.0
421,Sao Joao Da Barra,BR,-21.6403,-41.0511,72.57,96,100,7.94,moderate rain,1.18,0.0
422,La Ronge,CA,55.1001,-105.2842,64.65,32,75,4.61,broken clouds,0.0,0.0
423,Rosetta,EG,31.4044,30.4164,71.42,48,0,11.18,clear sky,0.0,0.0
424,Ponta Delgada,PT,37.7333,-25.6667,61.52,82,20,5.75,few clouds,0.0,0.0
425,Yenangyaung,MM,20.4667,94.8833,88.23,57,95,11.81,overcast clouds,0.0,0.0
426,Pevek,RU,69.7008,170.3133,39.54,68,22,4.97,few clouds,0.0,0.0
427,Batticaloa,LK,7.7102,81.6924,81.7,69,100,3.15,overcast clouds,0.0,0.0
428,Naryan-Mar,RU,67.6713,53.087,35.65,96,99,14.03,overcast clouds,0.0,0.0
429,Necochea,AR,-38.5473,-58.7368,51.04,56,100,19.6,overcast clouds,0.0,0.0
430,Dhidhdhoo,MV,6.8833,73.1,83.28,73,100,19.57,overcast clouds,0.0,0.0
431,Gambela,ET,8.25,34.5833,74.75,67,10,2.66,clear sky,0.0,0.0
432,Bardiyah,LY,31.7561,25.0865,69.12,81,0,10.89,clear sky,0.0,0.0
433,Gizo,SB,-8.103,156.8419,83.21,75,76,4.74,light rain,0.56,0.0
434,Manturovo,RU,58.3353,44.7619,36.37,65,13,7.23,few clouds,0.0,0.0
435,Jackson,US,42.4165,-122.8345,87.67,24,1,10.36,clear sky,0.0,0.0
436,Anzio,IT,41.4853,12.6179,61.86,94,78,6.4,broken clouds,0.0,0.0
437,Baruun-Urt,MN,46.6806,113.2792,39.43,94,100,12.24,overcast clouds,0.0,0.0
438,Sarakhs,IR,36.5449,61.1577,77.14,23,0,9.22,clear sky,0.0,0.0
439,Harper,LR,4.375,-7.7169,77.4,90,99,7.07,moderate rain,1.6,0.0
440,Kualakapuas,ID,-3.0091,114.3876,86.16,58,15,2.71,few clouds,0.0,0.0
441,Sarh,TD,9.1429,18.3923,85.91,54,0,0.0,clear sky,0.0,0.0
442,Valparaiso,CL,-33.0393,-71.6273,54.52,64,72,13.51,broken clouds,0.0,0.0
443,Killybegs,IE,54.6333,-8.45,54.72,93,100,5.79,overcast clouds,0.0,0.0
444,Pampa,US,35.5362,-100.9599,72.55,73,75,17.27,broken clouds,0.0,0.0
445,Kiama,AU,-34.6833,150.8667,66.38,53,0,2.77,clear sky,0.0,0.0
446,Kulhudhuffushi,MV,6.6221,73.07,83.08,74,100,19.08,overcast clouds,0.0,0.0
447,Denpasar,ID,-8.65,115.2167,80.26,89,20,2.66,few clouds,0.0,0.0
448,Wewak,PG,-3.5534,143.6268,85.32,69,90,6.8,overcast clouds,0.0,0.0
449,Lasa,IT,46.6166,10.7002,50.88,82,20,1.68,few clouds,0.0,0.0
450,Vicuna,CL,-30.0319,-70.7081,46.13,37,3,3.31,clear sky,0.0,0.0
451,Capitao Poco,BR,-1.7464,-47.0594,72.97,98,9,4.76,clear sky,0.0,0.0
452,Wichita Falls,US,33.9137,-98.4934,72.66,81,1,8.01,clear sky,0.0,0.0
453,Caraguatatuba,BR,-23.6338,-45.4899,69.62,98,100,1.3,light rain,0.14,0.0
454,Mulege,MX,26.8833,-111.9833,81.1,45,0,3.02,clear sky,0.0,0.0
455,Namatanai,PG,-3.6667,152.4333,83.68,74,98,7.92,moderate rain,1.01,0.0
456,Santa Cruz Do Rio Pardo,BR,-22.8989,-49.6325,60.57,92,100,7.99,overcast clouds,0.0,0.0
457,Inuvik,CA,68.3499,-133.7218,54.36,82,75,6.91,broken clouds,0.0,0.0
458,Andra,RU,62.5147,65.8878,42.39,59,96,9.8,overcast clouds,0.0,0.0
459,Villa Maria,AR,-32.4075,-63.2402,49.82,67,0,8.7,clear sky,0.0,0.0
460,Synya,RU,65.3718,58.0387,36.86,67,45,6.53,scattered clouds,0.0,0.0
461,Namibe,AO,-15.1961,12.1522,73.31,56,85,6.04,overcast clouds,0.0,0.0
462,Ous,RU,60.9058,61.5186,42.33,53,89,9.82,overcast clouds,0.0,0.0
463,Riobamba,EC,-1.6667,-78.6333,54.25,90,94,3.78,overcast clouds,0.0,0.0
464,Gabu,GW,12.2833,-14.2167,77.92,67,100,8.37,overcast clouds,0.0,0.0
465,Coracora,PE,-15.0333,-73.7833,46.94,65,42,1.01,scattered clouds,0.0,0.0
466,Grakhovo,RU,56.0502,51.9676,45.36,78,100,16.13,overcast clouds,0.0,0.0
467,Wahpeton,US,46.2652,-96.6059,68.02,32,20,11.5,few clouds,0.0,0.0
468,Bahia Honda,CU,22.9036,-83.1592,76.87,84,41,6.69,scattered clouds,0.0,0.0
469,Perez,AR,-32.9983,-60.7679,55.9,68,0,7.27,clear sky,0.0,0.0
470,Karaton,ID,-6.3424,106.1045,84.33,75,22,1.72,few clouds,0.0,0.0
471,Gamba,GA,-2.65,10.0,75.33,92,20,6.08,few clouds,0.0,0.0
472,Valdemarpils,LV,57.3707,22.5919,33.22,72,9,4.85,clear sky,0.0,0.0
473,Cepelare,BG,41.7333,24.6833,43.99,100,100,4.12,light rain,0.56,0.0
474,Itupiranga,BR,-5.1347,-49.3267,74.48,81,0,3.18,clear sky,0.0,0.0
475,Port Alberni,CA,49.2413,-124.8028,67.28,76,100,2.04,overcast clouds,0.0,0.0
476,Jiangkou,CN,25.4872,119.1986,73.29,83,96,6.69,light rain,0.52,0.0
477,Dovolnoye,RU,54.4958,79.6671,67.57,54,48,10.22,scattered clouds,0.0,0.0
478,Kyra,RU,49.5776,111.9753,49.73,31,47,14.92,scattered clouds,0.0,0.0
479,Humberto De Campos,BR,-2.5983,-43.4611,75.52,92,57,3.04,broken clouds,0.0,0.0
480,Poli,TZ,-3.3333,36.8,53.89,95,84,2.42,broken clouds,0.0,0.0
481,Yar-Sale,RU,66.8333,70.8333,39.11,51,18,14.16,few clouds,0.0,0.0
482,Wuwei,CN,37.9281,102.6414,67.87,33,92,10.38,overcast clouds,0.0,0.0
483,Los Llanos De Aridane,ES,28.6585,-17.9182,64.15,80,75,14.34,broken clouds,0.0,0.0
484,Cosenza,IT,39.31,16.2502,54.52,91,5,2.82,clear sky,0.0,0.0
485,Ahipara,NZ,-35.1667,173.1667,60.01,82,44,15.32,scattered clouds,0.0,0.0
486,Landerneau,FR,48.4525,-4.2525,52.57,90,2,6.38,clear sky,0.0,0.0
487,Geraldton,AU,-28.7667,114.6,62.13,77,90,17.18,overcast clouds,0.0,0.0
488,Griffith,US,41.5284,-87.4237,62.91,49,1,4.61,clear sky,0.0,0.0
489,Garissa,KE,-0.4536,39.6401,73.98,86,94,14.34,overcast clouds,0.0,0.0
490,Te Karaka,NZ,-38.4654,177.8679,59.92,56,39,1.9,scattered clouds,0.0,0.0
491,Kochi,IN,9.9399,76.2602,80.58,82,90,1.95,overcast clouds,0.0,0.0
492,Maues,BR,-3.3836,-57.7186,77.94,78,56,1.16,broken clouds,0.0,0.0
493,Lazurne,UA,46.084,32.5295,57.02,74,90,3.51,overcast clouds,0.0,0.0
494,Contamana,PE,-7.3333,-75.0167,79.12,76,100,0.4,light rain,0.8,0.0
495,Bambui,BR,-20.0064,-45.9769,68.72,71,99,1.48,overcast clouds,0.0,0.0
496,Dole,FR,47.0833,5.5,55.11,66,0,9.22,clear sky,0.0,0.0
497,Tahe,CN,52.3333,124.7333,62.92,54,99,8.12,light rain,0.12,0.0
498,Bathsheba,BB,13.2167,-59.5167,81.21,65,75,18.12,broken clouds,0.0,0.0
499,Fortuna,US,40.5982,-124.1573,77.18,64,91,1.99,overcast clouds,0.0,0.0
500,Shambu,ET,9.5667,37.1,53.87,43,12,2.8,few clouds,0.0,0.0
501,Jiuquan,CN,39.7432,98.5174,63.61,12,0,7.14,clear sky,0.0,0.0
502,Saint-Augustin,CA,51.226,-58.6502,51.03,58,0,8.86,clear sky,0.0,0.0
503,Phalaborwa,ZA,-23.943,31.1411,63.68,69,33,9.31,scattered clouds,0.0,0.0
504,Paita,PE,-5.0892,-81.1144,69.1,83,100,14.85,overcast clouds,0.0,0.0
505,Nagai,JP,38.1036,140.035,71.35,44,21,2.59,few clouds,0.0,0.0
506,Mamakan,RU,57.8161,114.0028,40.89,99,100,2.15,overcast clouds,0.0,0.0
507,Sao Felix Do Xingu,BR,-6.6447,-51.995,70.52,83,8,2.26,clear sky,0.0,0.0
508,Kintampo,GH,8.0563,-1.7306,73.27,97,100,4.63,light rain,0.15,0.0
509,Hohhot,CN,40.8106,111.6522,71.89,37,20,6.44,few clouds,0.0,0.0
510,Whitefish,US,48.4111,-114.3376,71.35,41,1,2.68,clear sky,0.0,0.0
511,Boende,CD,-0.2167,20.8667,76.19,78,85,1.41,overcast clouds,0.0,0.0
512,Pitanga,BR,-24.7572,-51.7614,58.24,99,100,3.83,overcast clouds,0.0,0.0
513,Misratah,LY,32.3754,15.0925,69.76,72,61,2.04,broken clouds,0.0,0.0
514,Mukhtolovo,RU,55.4644,43.1953,42.19,80,100,10.22,overcast clouds,0.0,0.0
515,San Pedro,PH,14.35,121.0167,92.43,62,40,5.37,scattered clouds,0.0,0.0
516,Morgan City,US,29.6994,-91.2068,75.0,88,75,4.52,broken clouds,0.0,0.0
517,Saint-Francois,FR,46.4154,3.9054,52.18,91,0,2.3,clear sky,0.0,0.0
518,Biak,ID,-0.9131,122.8766,82.0,72,100,5.14,overcast clouds,0.0,0.0
519,Kananga,CD,-5.8958,22.4178,64.13,46,61,4.61,broken clouds,0.0,0.0
520,Ilebo,CD,-4.3167,20.5833,69.58,62,100,2.13,overcast clouds,0.0,0.0
521,Lumberton,US,34.6182,-79.0086,61.21,64,100,4.68,overcast clouds,0.0,0.0
522,Yantal,RU,56.8471,105.2542,47.97,52,68,5.28,broken clouds,0.0,0.0
523,Maraa,BR,-1.8333,-65.3667,73.92,97,51,2.82,broken clouds,0.0,0.0
524,Huanren,CN,41.2647,125.3667,71.2,45,5,6.13,clear sky,0.0,0.0
525,Ibiruba,BR,-28.6275,-53.0897,43.21,68,0,4.68,clear sky,0.0,0.0
526,Wysokie Mazowieckie,PL,52.9166,22.5171,37.36,81,87,6.64,overcast clouds,0.0,0.0
527,Batagay-Alyta,RU,67.8006,130.4114,41.88,89,100,8.46,light rain,0.2,0.0
528,Dharchula,IN,29.85,80.5333,74.34,69,32,2.15,scattered clouds,0.0,0.0
529,Virginia Beach,US,36.8529,-75.978,59.11,82,100,1.01,overcast clouds,0.0,0.0
530,Blackwater,AU,-23.5833,148.8833,72.72,34,0,12.37,clear sky,0.0,0.0
531,Carbonia,IT,39.1672,8.5222,63.0,83,100,3.62,overcast clouds,0.0,0.0
532,Alice Springs,AU,-23.7,133.8833,74.21,21,56,11.99,broken clouds,0.0,0.0
533,Pontivy,FR,48.0,-3.0,59.25,89,0,6.46,clear sky,0.0,0.0
534,Altay,CN,47.8667,88.1167,69.26,17,0,2.95,clear sky,0.0,0.0
535,Xinxiang,CN,35.3089,113.8672,86.68,32,100,5.88,overcast clouds,0.0,0.0
536,Sobolevo,RU,54.4299,31.8996,38.37,77,90,7.29,overcast clouds,0.0,0.0
537,Makasar,ID,-5.14,119.4221,84.25,74,20,3.47,few clouds,0.0,0.0
538,Boden,SE,65.8252,21.6886,48.2,73,53,6.35,broken clouds,0.0,0.0
539,Polunochnoye,RU,60.8697,60.4153,40.19,63,20,7.47,few clouds,0.0,0.0
540,Tibati,CM,6.4667,12.6333,69.1,88,100,1.39,light rain,0.28,0.0
541,Dubbo,AU,-32.25,148.6167,62.73,48,0,4.61,clear sky,0.0,0.0
542,Shitanjing,CN,39.2342,106.3439,70.56,18,70,25.64,broken clouds,0.0,0.0
543,Cayenne,GF,4.9333,-52.3333,79.09,87,75,1.01,broken clouds,0.0,0.0
544,Sabang,ID,5.8933,95.3214,84.04,71,61,16.93,broken clouds,0.0,0.0
545,Epe,NG,6.5841,3.9834,78.01,93,77,4.92,broken clouds,0.0,0.0
546,Vestmanna,FO,62.1564,-7.1664,50.92,93,75,15.75,broken clouds,0.0,0.0
547,Cockburn Town,TC,21.4612,-71.1419,80.1,81,16,19.71,few clouds,0.0,0.0
548,Benghazi,LY,32.1167,20.0667,69.89,78,0,12.62,clear sky,0.0,0.0
549,Taft,IR,31.7471,54.2088,69.75,15,0,3.44,clear sky,0.0,0.0
550,Jacareacanga,BR,-6.2222,-57.7528,75.61,73,38,1.95,scattered clouds,0.0,0.0
551,Gawler,AU,-34.6,138.7333,60.22,32,100,4.23,overcast clouds,0.0,0.0
552,Northam,GB,51.0333,-4.2167,55.09,88,65,5.93,broken clouds,0.0,0.0
553,Yaring,TH,6.8662,101.3689,87.84,74,42,3.02,scattered clouds,0.0,0.0
554,Clyde River,CA,70.4692,-68.5914,25.03,100,90,3.44,overcast clouds,0.0,0.0
555,Buin,CL,-33.7333,-70.75,64.06,42,100,3.13,overcast clouds,0.0,0.0
556,Marzuq,YE,14.4,46.4667,76.6,38,0,4.36,clear sky,0.0,0.0
557,Qaracala,AZ,39.8132,48.9523,70.3,75,0,4.76,clear sky,0.0,0.0
558,Le Port,RE,-20.9373,55.2919,70.61,72,2,4.9,clear sky,0.0,0.0
559,Muriwai Beach,NZ,-36.8167,174.45,60.96,74,54,9.86,broken clouds,0.0,0.0
560,Goure,NE,13.9835,10.2704,81.68,9,0,6.35,clear sky,0.0,0.0
561,Poum,NC,-20.2333,164.0167,72.0,61,100,17.38,overcast clouds,0.0,0.0
562,Nueva Helvecia,UY,-34.3,-57.2333,47.59,68,25,9.71,scattered clouds,0.0,0.0
563,Nadbai,IN,27.2333,77.2,92.73,36,4,4.18,clear sky,0.0,0.0
564,Papetoai,PF,-17.4961,-149.8729,81.99,68,60,16.4,broken clouds,0.0,0.0
565,Zhigansk,RU,66.7697,123.3711,56.46,41,0,10.94,clear sky,0.0,0.0
566,Kokorevka,RU,52.5872,34.2778,44.4,91,100,8.72,overcast clouds,0.0,0.0
